City,Sector,DataPoint,Denominator,UOM,Result,Latitude,Longitude
Municipal Corporation of Delhi,Economy,Number of incubation centres & skill development centres (public and private),* None,Number,52,28.56838425,77.23814069
Bengaluru,Economy,Number of incubation centres & skill development centres (public and private),* None,Number,34,12.9767936,77.590082
Hyderabad,Economy,Number of incubation centres & skill development centres (public and private),* None,Number,30,17.360589,78.4740613
Greater Mumbai,Economy,Number of incubation centres & skill development centres (public and private),* None,Number,24,19.1074889,72.8718705
Ahmedabad,Economy,Number of incubation centres & skill development centres (public and private),* None,Number,20,23.0216238,72.5797068
Chennai,Economy,Number of incubation centres & skill development centres (public and private),* None,Number,18,13.0836939,80.270186
Jaipur,Economy,Number of incubation centres & skill development centres (public and private),* None,Number,17,26.9154576,75.8189817
Bhopal,Economy,Number of incubation centres & skill development centres (public and private),* None,Number,13,23.2584857,77.401989
Gurugram,Economy,Number of incubation centres & skill development centres (public and private),* None,Number,13,28.4646148,77.0299194
Bhubaneshwar,Economy,Number of incubation centres & skill development centres (public and private),* None,Number,10,20.2602964,85.8394521
Shillong,Economy,Number of incubation centres & skill development centres (public and private),* None,Number,9,25.5760446,91.8825282
Portblair,Economy,Number of incubation centres & skill development centres (public and private),* None,Number,8,11.623377,92.726486
Patna,Economy,Number of incubation centres & skill development centres (public and private),* None,Number,7,25.6093239,85.1235252
Coimbatore,Economy,Number of incubation centres & skill development centres (public and private),* None,Number,7,11.0018115,76.9628425
Nagpur,Economy,Number of incubation centres & skill development centres (public and private),* None,Number,7,21.1498134,79.0820556
Indore,Economy,Number of incubation centres & skill development centres (public and private),* None,Number,6,22.7203616,75.8681996
Pune,Economy,Number of incubation centres & skill development centres (public and private),* None,Number,6,18.521428,73.8544541
Amritsar,Economy,Number of incubation centres & skill development centres (public and private),* None,Number,6,31.6343083,74.8736788
Thiruvananthapuram,Economy,Number of incubation centres & skill development centres (public and private),* None,Number,5,8.4882267,76.947551
Vishakhapatnam,Economy,Number of incubation centres & skill development centres (public and private),* None,Number,4,17.686815,83.218483
Raipur,Economy,Number of incubation centres & skill development centres (public and private),* None,Number,3,21.2380912,81.6336993
Ajmer,Economy,Number of incubation centres & skill development centres (public and private),* None,Number,3,26.4691,74.639
Tirupati,Economy,Number of incubation centres & skill development centres (public and private),* None,Number,3,13.6316368,79.4231711
Nashik,Economy,Number of incubation centres & skill development centres (public and private),* None,Number,3,20.0112475,73.7902364
Jabalpur,Economy,Number of incubation centres & skill development centres (public and private),* None,Number,3,23.1608938,79.9497702
Faridabad,Economy,Number of incubation centres & skill development centres (public and private),* None,Number,3,28.4031478,77.3105561
Tiruchirapalli,Economy,Number of incubation centres & skill development centres (public and private),* None,Number,3,10.76316505,78.71326006
Guwahati,Economy,Number of incubation centres & skill development centres (public and private),* None,Number,3,26.1805978,91.753943
Pasighat,Economy,Number of incubation centres & skill development centres (public and private),* None,Number,3,28.0589676,95.3324944
Aurangabad,Economy,Number of incubation centres & skill development centres (public and private),* None,Number,3,19.877263,75.3390241
Chandigarh,Economy,Number of incubation centres & skill development centres (public and private),* None,Number,3,30.7334421,76.7797143
Ghaziabad,Economy,Number of incubation centres & skill development centres (public and private),* None,Number,2,28.6711527,77.4120356
Warangal,Economy,Number of incubation centres & skill development centres (public and private),* None,Number,2,17.9820644,79.5970954
Varanasi,Economy,Number of incubation centres & skill development centres (public and private),* None,Number,2,25.3356491,83.0076292
Jammu,Economy,Number of incubation centres & skill development centres (public and private),* None,Number,2,32.7185614,74.8580917
Lucknow,Economy,Number of incubation centres & skill development centres (public and private),* None,Number,2,26.8381,80.9346001
Ranchi,Economy,Number of incubation centres & skill development centres (public and private),* None,Number,2,23.3700501,85.3250387
Hubli Dharwad,Economy,Number of incubation centres & skill development centres (public and private),* None,Number,2,15.3518378,75.1379848
Navi Mumbai,Economy,Number of incubation centres & skill development centres (public and private),* None,Number,2,19.0308262,73.0198537
Tirunelveli,Economy,Number of incubation centres & skill development centres (public and private),* None,Number,1,8.7012203,77.5792694
Puducherry,Economy,Number of incubation centres & skill development centres (public and private),* None,Number,1,10.91564885,79.8069488
Rourkela,Economy,Number of incubation centres & skill development centres (public and private),* None,Number,1,22.2539994,84.85775201
Panaji,Economy,Number of incubation centres & skill development centres (public and private),* None,Number,1,15.4989946,73.8282141
Madurai,Economy,Number of incubation centres & skill development centres (public and private),* None,Number,1,9.9261153,78.1140983
Satna,Economy,Number of incubation centres & skill development centres (public and private),* None,Number,1,24.5,81
Ludhiana,Economy,Number of incubation centres & skill development centres (public and private),* None,Number,1,30.9090157,75.851601
Kota,Economy,Number of incubation centres & skill development centres (public and private),* None,Number,1,25.1737019,75.8574194
Kanpur,Economy,Number of incubation centres & skill development centres (public and private),* None,Number,1,26.4609135,80.3217588
Jodhpur,Economy,Number of incubation centres & skill development centres (public and private),* None,Number,1,26.2967719,73.0351433
Thanjavur,Economy,Number of incubation centres & skill development centres (public and private),* None,Number,1,10.7860267,79.1381497
Gwalior,Economy,Number of incubation centres & skill development centres (public and private),* None,Number,1,26.2037247,78.1573628
Erode,Economy,Number of incubation centres & skill development centres (public and private),* None,Number,1,11.3692044,77.67662687
Tiruppur,Economy,Number of incubation centres & skill development centres (public and private),* None,Number,1,11.1017815,77.345192
Dehradun,Economy,Number of incubation centres & skill development centres (public and private),* None,Number,1,30.3255646,78.0436813
Udaipur,Economy,Number of incubation centres & skill development centres (public and private),* None,Number,1,24.578721,73.6862571
Bareilly,Economy,Number of incubation centres & skill development centres (public and private),* None,Number,1,28.416667,79.383333
Vellore,Economy,Number of incubation centres & skill development centres (public and private),* None,Number,1,12.7948109,79.0006411
Vijayawada,Economy,Number of incubation centres & skill development centres (public and private),* None,Number,1,16.5087573,80.6185089
Agartala,Economy,Number of incubation centres & skill development centres (public and private),* None,Number,1,23.8312377,91.2823821
Kohima,Economy,Number of incubation centres & skill development centres (public and private),* None,Number,0,25.6618755,94.1019156
Shimla,Economy,Number of incubation centres & skill development centres (public and private),* None,Number,0,31.1041526,77.1709729
Mangaluru,Economy,Number of incubation centres & skill development centres (public and private),* None,Number,0,12.8698101,74.8430082
Meerut,Economy,Number of incubation centres & skill development centres (public and private),* None,Number,0,28.9826533,77.7081013
Salem,Economy,Number of incubation centres & skill development centres (public and private),* None,Number,0,11.664325,78.146011
Bhagalpur,Economy,Number of incubation centres & skill development centres (public and private),* None,Number,0,25.2494829,86.9828131
Vasai Virar,Economy,Number of incubation centres & skill development centres (public and private),* None,Number,0,19.4210423,72.8197221
Belagavi,Economy,Number of incubation centres & skill development centres (public and private),* None,Number,0,15.8572666,74.5069343
Rajkot,Economy,Number of incubation centres & skill development centres (public and private),* None,Number,0,22.3053263,70.8028377
Moradabad,Economy,Number of incubation centres & skill development centres (public and private),* None,Number,0,28.8334982,78.7732864
Rae Bareli,Economy,Number of incubation centres & skill development centres (public and private),* None,Number,0,26.25,81.25
Saharanpur,Economy,Number of incubation centres & skill development centres (public and private),* None,Number,0,30.0196485,77.59294245
Muzaffarpur,Economy,Number of incubation centres & skill development centres (public and private),* None,Number,0,26.1667052,85.4166314
Namchi,Economy,Number of incubation centres & skill development centres (public and private),* None,Number,0,27.1716157,88.41269169
Sagar,Economy,Number of incubation centres & skill development centres (public and private),* None,Number,0,21.75617035,88.12173958
Amravati,Economy,Number of incubation centres & skill development centres (public and private),* None,Number,0,21.15454115,77.64429618
Aligarh,Economy,Number of incubation centres & skill development centres (public and private),* None,Number,0,27.833333,78.166667
Pimpri Chinchwad,Economy,Number of incubation centres & skill development centres (public and private),* None,Number,0,18.6279288,73.8009829
Rampur,Economy,Number of incubation centres & skill development centres (public and private),* None,Number,0,24.890091,83.73254275
Aizawl,Economy,Number of incubation centres & skill development centres (public and private),* None,Number,0,23.7435236,92.7382905
Gandhinagar,Economy,Number of incubation centres & skill development centres (public and private),* None,Number,0,23.2232877,72.6492267
Gangtok,Economy,Number of incubation centres & skill development centres (public and private),* None,Number,0,27.329046,88.6122673
Thoothukudi,Economy,Number of incubation centres & skill development centres (public and private),* None,Number,0,8.8052602,78.1452745
Prayagraj,Economy,Number of incubation centres & skill development centres (public and private),* None,Number,0,25.4381302,81.8338005
Imphal,Economy,Number of incubation centres & skill development centres (public and private),* None,Number,0,24.7991162,93.9364419
Diu,Economy,Number of incubation centres & skill development centres (public and private),* None,Number,0,20.71817495,70.93238341
Itanagar,Economy,Number of incubation centres & skill development centres (public and private),* None,Number,0,27.0979659,93.6237291
Thane,Economy,Number of incubation centres & skill development centres (public and private),* None,Number,0,19.1943294,72.9701779
Jalandhar,Economy,Number of incubation centres & skill development centres (public and private),* None,Number,0,31.3323762,75.576889
Dindigul,Economy,Number of incubation centres & skill development centres (public and private),* None,Number,0,10.3303299,78.06739791
Surat,Economy,Number of incubation centres & skill development centres (public and private),* None,Number,0,21.17024,72.831062
Dharamshala,Economy,Number of incubation centres & skill development centres (public and private),* None,Number,0,32.2143039,76.3196717
Dhanbad,Economy,Number of incubation centres & skill development centres (public and private),* None,Number,0,23.7952809,86.4309638
Jhansi,Economy,Number of incubation centres & skill development centres (public and private),* None,Number,0,25.35486455,78.42564421
Srinagar,Economy,Number of incubation centres & skill development centres (public and private),* None,Number,0,34.0747444,74.8204443
Agra,Economy,Number of incubation centres & skill development centres (public and private),* None,Number,0,27.1752554,78.0098161
Tumakuru,Economy,Number of incubation centres & skill development centres (public and private),* None,Number,0,13.3400771,77.1006208
Davangere,Economy,Number of incubation centres & skill development centres (public and private),* None,Number,0,14.4661266,75.9206361
Solapur,Economy,Number of incubation centres & skill development centres (public and private),* None,Number,0,17.84990665,75.27632027
Dahod,Economy,Number of incubation centres & skill development centres (public and private),* None,Number,0,22.8358786,74.2556823
Kakinada,Economy,Number of incubation centres & skill development centres (public and private),* None,Number,0,16.99716705,82.2457999
Kalyan Dombivali,Economy,Number of incubation centres & skill development centres (public and private),* None,Number,0,19.2391602,73.1293186
Silvassa,Economy,Number of incubation centres & skill development centres (public and private),* None,Number,0,20.2736768,73.0045787
Karimnagar,Economy,Number of incubation centres & skill development centres (public and private),* None,Number,0,18.4348122,79.1328042
Karnal,Economy,Number of incubation centres & skill development centres (public and private),* None,Number,0,29.6803266,76.9896254
Shivamogga,Economy,Number of incubation centres & skill development centres (public and private),* None,Number,0,14.0558284,75.1312534
Kavaratti,Economy,Number of incubation centres & skill development centres (public and private),* None,Number,0,10.55905,72.6365688
Ujjain,Economy,Number of incubation centres & skill development centres (public and private),* None,Number,0,23.1885131,75.7716562
Bilaspur,Economy,Number of incubation centres & skill development centres (public and private),* None,Number,0,28.8680526,79.29838501
Kochi,Economy,Number of incubation centres & skill development centres (public and private),* None,Number,0,9.9674277,76.2454436
Biharsharif,Economy,Number of incubation centres & skill development centres (public and private),* None,Number,0,25.20383185,85.52413405
Vadodara,Economy,Number of incubation centres & skill development centres (public and private),* None,Number,0,22.2973142,73.1942567
